{
"type": "FeatureCollection",
"name": "water",
"crs": { "type": "name", "properties": { "name": "urn:ogc:def:crs:OGC:1.3:CRS84" } },
"features": [
{ "type": "Feature", "properties": { "Deliveries": null, "ANC": null, "Type": "Public Toilet", "typeText": null, "ownershipText": "Government", "Name": "Nakawa I", "layer": "Water", "typeTextWater": "Public Toilet", "identifier": 1782, "PNAME2014": "NAGURU I", "class": "Water" }, "geometry": { "type": "Point", "coordinates": [ 32.6122, 0.3288 ] } },
{ "type": "Feature", "properties": { "Deliveries": null, "ANC": null, "Type": "Public Toilet", "typeText": null, "ownershipText": "Government", "Name": "Nakasero Lower Market II", "layer": "Water", "typeTextWater": "Public Toilet", "identifier": 1804, "PNAME2014": "NAKASERO IV", "class": "Water" }, "geometry": { "type": "Point", "coordinates": [ 32.5795, 0.3112 ] } },
{ "type": "Feature", "properties": { "Deliveries": null, "ANC": null, "Type": "Public Toilet", "typeText": null, "ownershipText": "Government", "Name": "Nakasero Upper Market I", "layer": "Water", "typeTextWater": "Public Toilet", "identifier": 1803, "PNAME2014": "NAKASERO IV", "class": "Water" }, "geometry": { "type": "Point", "coordinates": [ 32.5797, 0.3119 ] } },
{ "type": "Feature", "properties": { "Deliveries": null, "ANC": null, "Type": "Public Toilet", "typeText": null, "ownershipText": "Government", "Name": "Nakasero Lower Market III", "layer": "Water", "typeTextWater": "Public Toilet", "identifier": 1805, "PNAME2014": "NAKASERO IV", "class": "Water" }, "geometry": { "type": "Point", "coordinates": [ 32.5802, 0.3112 ] } },
{ "type": "Feature", "properties": { "Deliveries": null, "ANC": null, "Type": "Public Toilet", "typeText": null, "ownershipText": "Government", "Name": "Kamwokya Market", "layer": "Water", "typeTextWater": "Public Toilet", "identifier": 1796, "PNAME2014": "KAMWOKYA II", "class": "Water" }, "geometry": { "type": "Point", "coordinates": [ 32.5891, 0.342 ] } },
{ "type": "Feature", "properties": { "Deliveries": null, "ANC": null, "Type": "Protected Springs", "typeText": null, "ownershipText": "Government", "Name": "Bugirinya", "layer": "Water", "typeTextWater": "Protected Springs", "identifier": 1788, "PNAME2014": "KASUBI", "class": "Water" }, "geometry": { "type": "Point", "coordinates": [ 32.5585, 0.3357 ] } },
{ "type": "Feature", "properties": { "Deliveries": null, "ANC": null, "Type": "Protected Springs", "typeText": null, "ownershipText": "Government", "Name": "Bawalakata", "layer": "Water", "typeTextWater": "Protected Springs", "identifier": 1787, "PNAME2014": "KASUBI", "class": "Water" }, "geometry": { "type": "Point", "coordinates": [ 32.5488, 0.3371 ] } },
{ "type": "Feature", "properties": { "Deliveries": null, "ANC": null, "Type": "Protected Springs", "typeText": null, "ownershipText": "Government", "Name": "Bumali", "layer": "Water", "typeTextWater": "Protected Springs", "identifier": 1789, "PNAME2014": "KASUBI", "class": "Water" }, "geometry": { "type": "Point", "coordinates": [ 32.5484, 0.3452 ] } },
{ "type": "Feature", "properties": { "Deliveries": null, "ANC": null, "Type": "Protected Springs", "typeText": null, "ownershipText": "Government", "Name": "Katta spring", "layer": "Water", "typeTextWater": "Protected Springs", "identifier": 1778, "PNAME2014": "KASUBI", "class": "Water" }, "geometry": { "type": "Point", "coordinates": [ 32.5479, 0.3407 ] } },
{ "type": "Feature", "properties": { "Deliveries": null, "ANC": null, "Type": "Protected Springs", "typeText": null, "ownershipText": "Government", "Name": "Nakalo spring", "layer": "Water", "typeTextWater": "Protected Springs", "identifier": 1852, "PNAME2014": "BANDA", "class": "Water" }, "geometry": { "type": "Point", "coordinates": [ 32.6356, 0.3376 ] } },
{ "type": "Feature", "properties": { "Deliveries": null, "ANC": null, "Type": "Water Reservoirs", "typeText": null, "ownershipText": "Government", "Name": "Muyenga Old Tank A", "layer": "Water", "typeTextWater": "Water Reservoirs", "identifier": 1822, "PNAME2014": "KANSANGA-MUYENGA", "class": "Water" }, "geometry": { "type": "Point", "coordinates": [ 32.6127, 0.2933 ] } },
{ "type": "Feature", "properties": { "Deliveries": null, "ANC": null, "Type": "Protected Springs", "typeText": null, "ownershipText": "Government", "Name": "Gajjuule", "layer": "Water", "typeTextWater": "Protected Springs", "identifier": 1774, "PNAME2014": "KASUBI", "class": "Water" }, "geometry": { "type": "Point", "coordinates": [ 32.5576, 0.3411 ] } },
{ "type": "Feature", "properties": { "Deliveries": null, "ANC": null, "Type": "Protected Springs", "typeText": null, "ownershipText": "Government", "Name": "Katalina", "layer": "Water", "typeTextWater": "Protected Springs", "identifier": 1841, "PNAME2014": "BANDA", "class": "Water" }, "geometry": { "type": "Point", "coordinates": [ 32.6384, 0.3497 ] } },
{ "type": "Feature", "properties": { "Deliveries": null, "ANC": null, "Type": "Water Reservoirs", "typeText": null, "ownershipText": "Government", "Name": "Muyenga Old Tank E", "layer": "Water", "typeTextWater": "Water Reservoirs", "identifier": 1824, "PNAME2014": "KANSANGA-MUYENGA", "class": "Water" }, "geometry": { "type": "Point", "coordinates": [ 32.6121, 0.2934 ] } },
{ "type": "Feature", "properties": { "Deliveries": null, "ANC": null, "Type": "Protected Springs", "typeText": null, "ownershipText": "Government", "Name": "Kalule's spring", "layer": "Water", "typeTextWater": "Protected Springs", "identifier": 1776, "PNAME2014": "KASUBI", "class": "Water" }, "geometry": { "type": "Point", "coordinates": [ 32.555, 0.346 ] } },
{ "type": "Feature", "properties": { "Deliveries": null, "ANC": null, "Type": "Protected Springs", "typeText": null, "ownershipText": "Government", "Name": "Serunjoji spring", "layer": "Water", "typeTextWater": "Protected Springs", "identifier": 1845, "PNAME2014": "BANDA", "class": "Water" }, "geometry": { "type": "Point", "coordinates": [ 32.6383, 0.3465 ] } },
{ "type": "Feature", "properties": { "Deliveries": null, "ANC": null, "Type": "Water Reservoirs", "typeText": null, "ownershipText": "Government", "Name": "Muyenga Old Tank B", "layer": "Water", "typeTextWater": "Water Reservoirs", "identifier": 1823, "PNAME2014": "KANSANGA-MUYENGA", "class": "Water" }, "geometry": { "type": "Point", "coordinates": [ 32.6124, 0.2934 ] } },
{ "type": "Feature", "properties": { "Deliveries": null, "ANC": null, "Type": "Protected Springs", "typeText": null, "ownershipText": "Government", "Name": "Solome", "layer": "Water", "typeTextWater": "Protected Springs", "identifier": 1765, "PNAME2014": "KASUBI", "class": "Water" }, "geometry": { "type": "Point", "coordinates": [ 32.5568, 0.3436 ] } },
{ "type": "Feature", "properties": { "Deliveries": null, "ANC": null, "Type": "Protected Springs", "typeText": null, "ownershipText": "Government", "Name": "Acholi quarters", "layer": "Water", "typeTextWater": "Protected Springs", "identifier": 1838, "PNAME2014": "BANDA", "class": "Water" }, "geometry": { "type": "Point", "coordinates": [ 32.6379, 0.345 ] } },
{ "type": "Feature", "properties": { "Deliveries": null, "ANC": null, "Type": "Water Reservoirs", "typeText": null, "ownershipText": "Government", "Name": "Muyenga New Tank D", "layer": "Water", "typeTextWater": "Water Reservoirs", "identifier": 1836, "PNAME2014": "KANSANGA-MUYENGA", "class": "Water" }, "geometry": { "type": "Point", "coordinates": [ 32.6112, 0.2936 ] } },
{ "type": "Feature", "properties": { "Deliveries": null, "ANC": null, "Type": "Water Reservoirs", "typeText": null, "ownershipText": "Government", "Name": "Mutungo Res II", "layer": "Water", "typeTextWater": "Water Reservoirs", "identifier": 1828, "PNAME2014": "MUTUNGO", "class": "Water" }, "geometry": { "type": "Point", "coordinates": [ 32.6461, 0.3104 ] } },
{ "type": "Feature", "properties": { "Deliveries": null, "ANC": null, "Type": "Protected Springs", "typeText": null, "ownershipText": "Government", "Name": "Mailo 4, Hajji Kayondo", "layer": "Water", "typeTextWater": "Protected Springs", "identifier": 1768, "PNAME2014": "KASUBI", "class": "Water" }, "geometry": { "type": "Point", "coordinates": [ 32.5478, 0.3391 ] } },
{ "type": "Feature", "properties": { "Deliveries": null, "ANC": null, "Type": "Protected Springs", "typeText": null, "ownershipText": "Government", "Name": "Buwooya spring", "layer": "Water", "typeTextWater": "Protected Springs", "identifier": 1840, "PNAME2014": "BANDA", "class": "Water" }, "geometry": { "type": "Point", "coordinates": [ 32.6375, 0.3582 ] } },
{ "type": "Feature", "properties": { "Deliveries": null, "ANC": null, "Type": "Water Reservoirs", "typeText": null, "ownershipText": "Government", "Name": "Muyenga New Tank C", "layer": "Water", "typeTextWater": "Water Reservoirs", "identifier": 1835, "PNAME2014": "KANSANGA-MUYENGA", "class": "Water" }, "geometry": { "type": "Point", "coordinates": [ 32.6117, 0.2935 ] } },
{ "type": "Feature", "properties": { "Deliveries": null, "ANC": null, "Type": "Water Reservoirs", "typeText": null, "ownershipText": "Government", "Name": "Mutungo Res I", "layer": "Water", "typeTextWater": "Water Reservoirs", "identifier": 1827, "PNAME2014": "MUTUNGO", "class": "Water" }, "geometry": { "type": "Point", "coordinates": [ 32.6464, 0.3102 ] } },
{ "type": "Feature", "properties": { "Deliveries": null, "ANC": null, "Type": "Protected Springs", "typeText": null, "ownershipText": "Government", "Name": "Abdu Luzzi", "layer": "Water", "typeTextWater": "Protected Springs", "identifier": 1694, "PNAME2014": "BWAISE III", "class": "Water" }, "geometry": { "type": "Point", "coordinates": [ 32.5559, 0.3518 ] } },
{ "type": "Feature", "properties": { "Deliveries": null, "ANC": null, "Type": "Protected Springs", "typeText": null, "ownershipText": "Government", "Name": "Bichenche", "layer": "Water", "typeTextWater": "Protected Springs", "identifier": 1755, "PNAME2014": "KASUBI", "class": "Water" }, "geometry": { "type": "Point", "coordinates": [ 32.5525, 0.3468 ] } },
{ "type": "Feature", "properties": { "Deliveries": null, "ANC": null, "Type": "Protected Springs", "typeText": null, "ownershipText": "Government", "Name": "Mutimba", "layer": "Water", "typeTextWater": "Protected Springs", "identifier": 1759, "PNAME2014": "KASUBI", "class": "Water" }, "geometry": { "type": "Point", "coordinates": [ 32.5474, 0.3433 ] } },
{ "type": "Feature", "properties": { "Deliveries": null, "ANC": null, "Type": "Protected Springs", "typeText": null, "ownershipText": "Government", "Name": "Zone 9 Spring II", "layer": "Water", "typeTextWater": "Protected Springs", "identifier": 1753, "PNAME2014": "NAKULABYE", "class": "Water" }, "geometry": { "type": "Point", "coordinates": [ 32.5625, 0.3283 ] } },
{ "type": "Feature", "properties": { "Deliveries": null, "ANC": null, "Type": "Protected Springs", "typeText": null, "ownershipText": "Government", "Name": "Ssekandi", "layer": "Water", "typeTextWater": "Protected Springs", "identifier": 1750, "PNAME2014": "KASUBI", "class": "Water" }, "geometry": { "type": "Point", "coordinates": [ 32.5495, 0.3456 ] } },
{ "type": "Feature", "properties": { "Deliveries": null, "ANC": null, "Type": "Protected Springs", "typeText": null, "ownershipText": "Government", "Name": "Katono-Kewaza", "layer": "Water", "typeTextWater": "Protected Springs", "identifier": 1746, "PNAME2014": "NAKULABYE", "class": "Water" }, "geometry": { "type": "Point", "coordinates": [ 32.5597, 0.3298 ] } },
{ "type": "Feature", "properties": { "Deliveries": null, "ANC": null, "Type": "Protected Springs", "typeText": null, "ownershipText": "Government", "Name": "Zone 9 Spring I", "layer": "Water", "typeTextWater": "Protected Springs", "identifier": 1752, "PNAME2014": "NAKULABYE", "class": "Water" }, "geometry": { "type": "Point", "coordinates": [ 32.5625, 0.3283 ] } },
{ "type": "Feature", "properties": { "Deliveries": null, "ANC": null, "Type": "Protected Springs", "typeText": null, "ownershipText": "Government", "Name": "Mukiibi", "layer": "Water", "typeTextWater": "Protected Springs", "identifier": 1740, "PNAME2014": "NAKULABYE", "class": "Water" }, "geometry": { "type": "Point", "coordinates": [ 32.5596, 0.3298 ] } },
{ "type": "Feature", "properties": { "Deliveries": null, "ANC": null, "Type": "Public Toilet", "typeText": null, "ownershipText": "Government", "Name": "Constitutional Square - Crane Bank", "layer": "Water", "typeTextWater": "Public Toilet", "identifier": 1793, "PNAME2014": "NAKASERO III", "class": "Water" }, "geometry": { "type": "Point", "coordinates": [ 32.5782, 0.3149 ] } },
{ "type": "Feature", "properties": { "Deliveries": null, "ANC": null, "Type": "Public Toilet", "typeText": null, "ownershipText": "Government", "Name": "Buganda Rd Teachers Quarters", "layer": "Water", "typeTextWater": "Public Toilet", "identifier": 1792, "PNAME2014": "NAKASERO III", "class": "Water" }, "geometry": { "type": "Point", "coordinates": [ 32.5746, 0.325 ] } },
{ "type": "Feature", "properties": { "Deliveries": null, "ANC": null, "Type": "Public Toilet", "typeText": null, "ownershipText": "Government", "Name": "Watoto Central Toilet", "layer": "Water", "typeTextWater": "Public Toilet", "identifier": 1791, "PNAME2014": "NAKASERO III", "class": "Water" }, "geometry": { "type": "Point", "coordinates": [ 32.5745, 0.3188 ] } },
{ "type": "Feature", "properties": { "Deliveries": null, "ANC": null, "Type": "Public Toilet", "typeText": null, "ownershipText": "Government", "Name": "Kiira Rd Police Station", "layer": "Water", "typeTextWater": "Public Toilet", "identifier": 1795, "PNAME2014": "KAMWOKYA I", "class": "Water" }, "geometry": { "type": "Point", "coordinates": [ 32.5947, 0.3437 ] } },
{ "type": "Feature", "properties": { "Deliveries": null, "ANC": null, "Type": "Protected Springs", "typeText": null, "ownershipText": "Government", "Name": "Kitaka", "layer": "Water", "typeTextWater": "Protected Springs", "identifier": 1766, "PNAME2014": "BUSEGA", "class": "Water" }, "geometry": { "type": "Point", "coordinates": [ 32.5267, 0.3019 ] } },
{ "type": "Feature", "properties": { "Deliveries": null, "ANC": null, "Type": "Public Toilet", "typeText": null, "ownershipText": "Government", "Name": "Constitutional Square - Mapeera House", "layer": "Water", "typeTextWater": "Public Toilet", "identifier": 1794, "PNAME2014": "NAKASERO III", "class": "Water" }, "geometry": { "type": "Point", "coordinates": [ 32.5791, 0.3143 ] } },
{ "type": "Feature", "properties": { "Deliveries": null, "ANC": null, "Type": "Protected Springs", "typeText": null, "ownershipText": "Government", "Name": "Kasonko Ssempijja", "layer": "Water", "typeTextWater": "Protected Springs", "identifier": 1699, "PNAME2014": "MAKERERE III", "class": "Water" }, "geometry": { "type": "Point", "coordinates": [ 32.5637, 0.3486 ] } },
{ "type": "Feature", "properties": { "Deliveries": null, "ANC": null, "Type": "Protected Springs", "typeText": null, "ownershipText": "Government", "Name": "Near stand pipe", "layer": "Water", "typeTextWater": "Protected Springs", "identifier": 1857, "PNAME2014": "KIBUYE I", "class": "Water" }, "geometry": { "type": "Point", "coordinates": [ 32.5806, 0.2941 ] } },
{ "type": "Feature", "properties": { "Deliveries": null, "ANC": null, "Type": "Protected Springs", "typeText": null, "ownershipText": "Government", "Name": "Yusufu spring 2", "layer": "Water", "typeTextWater": "Protected Springs", "identifier": 1860, "PNAME2014": "KIBUYE I", "class": "Water" }, "geometry": { "type": "Point", "coordinates": [ 32.5809, 0.294 ] } },
{ "type": "Feature", "properties": { "Deliveries": null, "ANC": null, "Type": "Protected Springs", "typeText": null, "ownershipText": "Government", "Name": "Ssemwezi Kaggwa", "layer": "Water", "typeTextWater": "Protected Springs", "identifier": 1719, "PNAME2014": "BUSEGA", "class": "Water" }, "geometry": { "type": "Point", "coordinates": [ 32.5303, 0.3161 ] } },
{ "type": "Feature", "properties": { "Deliveries": null, "ANC": null, "Type": "Protected Springs", "typeText": null, "ownershipText": "Government", "Name": "Yusufu spring 1", "layer": "Water", "typeTextWater": "Protected Springs", "identifier": 1859, "PNAME2014": "KIBUYE I", "class": "Water" }, "geometry": { "type": "Point", "coordinates": [ 32.5809, 0.294 ] } },
{ "type": "Feature", "properties": { "Deliveries": null, "ANC": null, "Type": "Protected Springs", "typeText": null, "ownershipText": "Government", "Name": "Bakunga spring", "layer": "Water", "typeTextWater": "Protected Springs", "identifier": 1754, "PNAME2014": "BUSEGA", "class": "Water" }, "geometry": { "type": "Point", "coordinates": [ 32.5312, 0.3162 ] } },
{ "type": "Feature", "properties": { "Deliveries": null, "ANC": null, "Type": "Protected Springs", "typeText": null, "ownershipText": "Government", "Name": "Kanayaka", "layer": "Water", "typeTextWater": "Protected Springs", "identifier": 1745, "PNAME2014": "BUSEGA", "class": "Water" }, "geometry": { "type": "Point", "coordinates": [ 32.5335, 0.3166 ] } },
{ "type": "Feature", "properties": { "Deliveries": null, "ANC": null, "Type": "Water Reservoirs", "typeText": null, "ownershipText": "Government", "Name": "Nakasero Main Tank", "layer": "Water", "typeTextWater": "Water Reservoirs", "identifier": 1826, "PNAME2014": "NAKASERO II", "class": "Water" }, "geometry": { "type": "Point", "coordinates": [ 32.5812, 0.3179 ] } },
{ "type": "Feature", "properties": { "Deliveries": null, "ANC": null, "Type": "Protected Springs", "typeText": null, "ownershipText": "Government", "Name": "Maria spring", "layer": "Water", "typeTextWater": "Protected Springs", "identifier": 1849, "PNAME2014": "BANDA", "class": "Water" }, "geometry": { "type": "Point", "coordinates": [ 32.6384, 0.3469 ] } },
{ "type": "Feature", "properties": { "Deliveries": null, "ANC": null, "Type": "Water Reservoirs", "typeText": null, "ownershipText": "Government", "Name": "Gun Hill Tank II", "layer": "Water", "typeTextWater": "Water Reservoirs", "identifier": 1825, "PNAME2014": "NAKASERO II", "class": "Water" }, "geometry": { "type": "Point", "coordinates": [ 32.5814, 0.3175 ] } },
{ "type": "Feature", "properties": { "Deliveries": null, "ANC": null, "Type": "Protected Springs", "typeText": null, "ownershipText": "Government", "Name": "Dina Namusoke", "layer": "Water", "typeTextWater": "Protected Springs", "identifier": 1698, "PNAME2014": "MAKERERE III", "class": "Water" }, "geometry": { "type": "Point", "coordinates": [ 32.5664, 0.3477 ] } },
{ "type": "Feature", "properties": { "Deliveries": null, "ANC": null, "Type": "Protected Springs", "typeText": null, "ownershipText": "Government", "Name": "Nabisaalu", "layer": "Water", "typeTextWater": "Protected Springs", "identifier": 1883, "PNAME2014": "KIBUYE I", "class": "Water" }, "geometry": { "type": "Point", "coordinates": [ 32.5824, 0.2932 ] } },
{ "type": "Feature", "properties": { "Deliveries": null, "ANC": null, "Type": "Protected Springs", "typeText": null, "ownershipText": "Government", "Name": "Mukiibi", "layer": "Water", "typeTextWater": "Protected Springs", "identifier": 1881, "PNAME2014": "KABALAGALA", "class": "Water" }, "geometry": { "type": "Point", "coordinates": [ 32.6007, 0.2947 ] } },
{ "type": "Feature", "properties": { "Deliveries": null, "ANC": null, "Type": "Protected Springs", "typeText": null, "ownershipText": "Government", "Name": "Kitamanyangaamba", "layer": "Water", "typeTextWater": "Protected Springs", "identifier": 1713, "PNAME2014": "KAGUGUBE", "class": "Water" }, "geometry": { "type": "Point", "coordinates": [ 32.5679, 0.3239 ] } },
{ "type": "Feature", "properties": { "Deliveries": null, "ANC": null, "Type": "Protected Springs", "typeText": null, "ownershipText": "Government", "Name": "Biyinja spring", "layer": "Water", "typeTextWater": "Protected Springs", "identifier": 1888, "PNAME2014": "KABALAGALA", "class": "Water" }, "geometry": { "type": "Point", "coordinates": [ 32.5995, 0.2991 ] } },
{ "type": "Feature", "properties": { "Deliveries": null, "ANC": null, "Type": "Protected Springs", "typeText": null, "ownershipText": "Government", "Name": "Mutiaba, washing bay", "layer": "Water", "typeTextWater": "Protected Springs", "identifier": 1866, "PNAME2014": "KABALAGALA", "class": "Water" }, "geometry": { "type": "Point", "coordinates": [ 32.5982, 0.2983 ] } },
{ "type": "Feature", "properties": { "Deliveries": null, "ANC": null, "Type": "Protected Springs", "typeText": null, "ownershipText": "Government", "Name": "Nalongo", "layer": "Water", "typeTextWater": "Protected Springs", "identifier": 1844, "PNAME2014": "BUTABIKA", "class": "Water" }, "geometry": { "type": "Point", "coordinates": [ 32.6535, 0.3031 ] } },
{ "type": "Feature", "properties": { "Deliveries": null, "ANC": null, "Type": "Protected Springs", "typeText": null, "ownershipText": "Government", "Name": "Kachururu", "layer": "Water", "typeTextWater": "Protected Springs", "identifier": 1890, "PNAME2014": "KABALAGALA", "class": "Water" }, "geometry": { "type": "Point", "coordinates": [ 32.5969, 0.2994 ] } },
{ "type": "Feature", "properties": { "Deliveries": null, "ANC": null, "Type": "Protected Springs", "typeText": null, "ownershipText": "Government", "Name": "Kimwanyi spring", "layer": "Water", "typeTextWater": "Protected Springs", "identifier": 1899, "PNAME2014": "WANDEGEYA", "class": "Water" }, "geometry": { "type": "Point", "coordinates": [ 32.5743, 0.3343 ] } },
{ "type": "Feature", "properties": { "Deliveries": null, "ANC": null, "Type": "Protected Springs", "typeText": null, "ownershipText": "Government", "Name": "Kimera Musisi", "layer": "Water", "typeTextWater": "Protected Springs", "identifier": 1780, "PNAME2014": "NDEEBA", "class": "Water" }, "geometry": { "type": "Point", "coordinates": [ 32.5621, 0.3008 ] } },
{ "type": "Feature", "properties": { "Deliveries": null, "ANC": null, "Type": "Protected Springs", "typeText": null, "ownershipText": "Government", "Name": "Katanga", "layer": "Water", "typeTextWater": "Protected Springs", "identifier": 1700, "PNAME2014": "WANDEGEYA", "class": "Water" }, "geometry": { "type": "Point", "coordinates": [ 32.5746, 0.3367 ] } },
{ "type": "Feature", "properties": { "Deliveries": null, "ANC": null, "Type": "Protected Springs", "typeText": null, "ownershipText": "Government", "Name": "Kintu spring", "layer": "Water", "typeTextWater": "Protected Springs", "identifier": 1781, "PNAME2014": "NDEEBA", "class": "Water" }, "geometry": { "type": "Point", "coordinates": [ 32.5601, 0.3043 ] } },
{ "type": "Feature", "properties": { "Deliveries": null, "ANC": null, "Type": "Protected Springs", "typeText": null, "ownershipText": "Government", "Name": "Bugyebejjo", "layer": "Water", "typeTextWater": "Protected Springs", "identifier": 1695, "PNAME2014": "MAKERERE II", "class": "Water" }, "geometry": { "type": "Point", "coordinates": [ 32.5594, 0.3376 ] } },
{ "type": "Feature", "properties": { "Deliveries": null, "ANC": null, "Type": "Protected Springs", "typeText": null, "ownershipText": "Government", "Name": "Lugbara spring", "layer": "Water", "typeTextWater": "Protected Springs", "identifier": 1701, "PNAME2014": "MAKERERE II", "class": "Water" }, "geometry": { "type": "Point", "coordinates": [ 32.5598, 0.3469 ] } },
{ "type": "Feature", "properties": { "Deliveries": null, "ANC": null, "Type": "Protected Springs", "typeText": null, "ownershipText": "Government", "Name": "Yowana Maria4", "layer": "Water", "typeTextWater": "Protected Springs", "identifier": 1715, "PNAME2014": "MENGO", "class": "Water" }, "geometry": { "type": "Point", "coordinates": [ 32.565, 0.3082 ] } },
{ "type": "Feature", "properties": { "Deliveries": null, "ANC": null, "Type": "Protected Springs", "typeText": null, "ownershipText": "Government", "Name": "Yowana Maria2", "layer": "Water", "typeTextWater": "Protected Springs", "identifier": 1709, "PNAME2014": "MENGO", "class": "Water" }, "geometry": { "type": "Point", "coordinates": [ 32.5645, 0.3083 ] } },
{ "type": "Feature", "properties": { "Deliveries": null, "ANC": null, "Type": "Protected Springs", "typeText": null, "ownershipText": "Government", "Name": "Nsimbe Frederick", "layer": "Water", "typeTextWater": "Protected Springs", "identifier": 1871, "PNAME2014": "GGABA", "class": "Water" }, "geometry": { "type": "Point", "coordinates": [ 32.6156, 0.2739 ] } },
{ "type": "Feature", "properties": { "Deliveries": null, "ANC": null, "Type": "Protected Springs", "typeText": null, "ownershipText": "Government", "Name": "Yowana Maria1", "layer": "Water", "typeTextWater": "Protected Springs", "identifier": 1711, "PNAME2014": "MENGO", "class": "Water" }, "geometry": { "type": "Point", "coordinates": [ 32.5643, 0.3081 ] } },
{ "type": "Feature", "properties": { "Deliveries": null, "ANC": null, "Type": "Protected Springs", "typeText": null, "ownershipText": "Government", "Name": "Spire", "layer": "Water", "typeTextWater": "Protected Springs", "identifier": 1733, "PNAME2014": "NDEEBA", "class": "Water" }, "geometry": { "type": "Point", "coordinates": [ 32.5646, 0.2947 ] } },
{ "type": "Feature", "properties": { "Deliveries": null, "ANC": null, "Type": "Protected Springs", "typeText": null, "ownershipText": "Government", "Name": "Karinda", "layer": "Water", "typeTextWater": "Protected Springs", "identifier": 1777, "PNAME2014": "NDEEBA", "class": "Water" }, "geometry": { "type": "Point", "coordinates": [ 32.5649, 0.2948 ] } },
{ "type": "Feature", "properties": { "Deliveries": null, "ANC": null, "Type": "Protected Springs", "typeText": null, "ownershipText": "Government", "Name": "Makerere II, C", "layer": "Water", "typeTextWater": "Protected Springs", "identifier": 1894, "PNAME2014": "MAKERERE II", "class": "Water" }, "geometry": { "type": "Point", "coordinates": [ 32.5589, 0.3437 ] } },
{ "type": "Feature", "properties": { "Deliveries": null, "ANC": null, "Type": "Protected Springs", "typeText": null, "ownershipText": "Government", "Name": "Makerere spring", "layer": "Water", "typeTextWater": "Protected Springs", "identifier": 1895, "PNAME2014": "MAKERERE II", "class": "Water" }, "geometry": { "type": "Point", "coordinates": [ 32.5611, 0.3477 ] } },
{ "type": "Feature", "properties": { "Deliveries": null, "ANC": null, "Type": "Protected Springs", "typeText": null, "ownershipText": "Government", "Name": "Byakuno", "layer": "Water", "typeTextWater": "Protected Springs", "identifier": 1696, "PNAME2014": "MAKERERE II", "class": "Water" }, "geometry": { "type": "Point", "coordinates": [ 32.5621, 0.348 ] } },
{ "type": "Feature", "properties": { "Deliveries": null, "ANC": null, "Type": "Protected Springs", "typeText": null, "ownershipText": "Government", "Name": "Central C spring", "layer": "Water", "typeTextWater": "Protected Springs", "identifier": 1756, "PNAME2014": "NATETE", "class": "Water" }, "geometry": { "type": "Point", "coordinates": [ 32.5337, 0.2996 ] } },
{ "type": "Feature", "properties": { "Deliveries": null, "ANC": null, "Type": "Protected Springs", "typeText": null, "ownershipText": "Government", "Name": "Nabayego spring", "layer": "Water", "typeTextWater": "Protected Springs", "identifier": 1760, "PNAME2014": "NATETE", "class": "Water" }, "geometry": { "type": "Point", "coordinates": [ 32.5391, 0.3001 ] } },
{ "type": "Feature", "properties": { "Deliveries": null, "ANC": null, "Type": "Protected Springs", "typeText": null, "ownershipText": "Government", "Name": "Kyeyune spring, near road, next to wall fence", "layer": "Water", "typeTextWater": "Protected Springs", "identifier": 1736, "PNAME2014": "NATETE", "class": "Water" }, "geometry": { "type": "Point", "coordinates": [ 32.5407, 0.3048 ] } },
{ "type": "Feature", "properties": { "Deliveries": null, "ANC": null, "Type": "Protected Springs", "typeText": null, "ownershipText": "Government", "Name": "Kyeyune spring", "layer": "Water", "typeTextWater": "Protected Springs", "identifier": 1735, "PNAME2014": "NATETE", "class": "Water" }, "geometry": { "type": "Point", "coordinates": [ 32.5403, 0.3038 ] } },
{ "type": "Feature", "properties": { "Deliveries": null, "ANC": null, "Type": "Public Toilet", "typeText": null, "ownershipText": "Government", "Name": "Nateete Market II", "layer": "Water", "typeTextWater": "Public Toilet", "identifier": 1784, "PNAME2014": "NATETE", "class": "Water" }, "geometry": { "type": "Point", "coordinates": [ 32.5332, 0.3 ] } },
{ "type": "Feature", "properties": { "Deliveries": null, "ANC": null, "Type": "Public Toilet", "typeText": null, "ownershipText": "Government", "Name": "Nateete Market I", "layer": "Water", "typeTextWater": "Public Toilet", "identifier": 1783, "PNAME2014": "NATETE", "class": "Water" }, "geometry": { "type": "Point", "coordinates": [ 32.5333, 0.3001 ] } },
{ "type": "Feature", "properties": { "Deliveries": null, "ANC": null, "Type": "Protected Springs", "typeText": null, "ownershipText": "Government", "Name": "Makayi spring", "layer": "Water", "typeTextWater": "Protected Springs", "identifier": 1769, "PNAME2014": "NATETE", "class": "Water" }, "geometry": { "type": "Point", "coordinates": [ 32.533, 0.309 ] } },
{ "type": "Feature", "properties": { "Deliveries": null, "ANC": null, "Type": "Protected Springs", "typeText": null, "ownershipText": "Government", "Name": "Papsca spring", "layer": "Water", "typeTextWater": "Protected Springs", "identifier": 1764, "PNAME2014": "NATETE", "class": "Water" }, "geometry": { "type": "Point", "coordinates": [ 32.5316, 0.3045 ] } },
{ "type": "Feature", "properties": { "Deliveries": null, "ANC": null, "Type": "Protected Springs", "typeText": null, "ownershipText": "Government", "Name": "Kifumbira spring", "layer": "Water", "typeTextWater": "Protected Springs", "identifier": 1898, "PNAME2014": "MULAGO III", "class": "Water" }, "geometry": { "type": "Point", "coordinates": [ 32.5855, 0.3453 ] } },
{ "type": "Feature", "properties": { "Deliveries": null, "ANC": null, "Type": "Protected Springs", "typeText": null, "ownershipText": "Government", "Name": "Kalerwe", "layer": "Water", "typeTextWater": "Protected Springs", "identifier": 1897, "PNAME2014": "MULAGO III", "class": "Water" }, "geometry": { "type": "Point", "coordinates": [ 32.5717, 0.3499 ] } },
{ "type": "Feature", "properties": { "Deliveries": null, "ANC": null, "Type": "Protected Springs", "typeText": null, "ownershipText": "Government", "Name": "Nsooba spring I", "layer": "Water", "typeTextWater": "Protected Springs", "identifier": 1901, "PNAME2014": "MULAGO III", "class": "Water" }, "geometry": { "type": "Point", "coordinates": [ 32.5799, 0.3486 ] } },
{ "type": "Feature", "properties": { "Deliveries": null, "ANC": null, "Type": "Protected Springs", "typeText": null, "ownershipText": "Government", "Name": "Culvert", "layer": "Water", "typeTextWater": "Protected Springs", "identifier": 1896, "PNAME2014": "MULAGO III", "class": "Water" }, "geometry": { "type": "Point", "coordinates": [ 32.5812, 0.3477 ] } },
{ "type": "Feature", "properties": { "Deliveries": null, "ANC": null, "Type": "Protected Springs", "typeText": null, "ownershipText": "Government", "Name": "Kalinda spring", "layer": "Water", "typeTextWater": "Protected Springs", "identifier": 1875, "PNAME2014": "KIBULI", "class": "Water" }, "geometry": { "type": "Point", "coordinates": [ 32.5942, 0.3057 ] } },
{ "type": "Feature", "properties": { "Deliveries": null, "ANC": null, "Type": "Public Toilet", "typeText": null, "ownershipText": "Government", "Name": "Ganesh-Entebbe Road", "layer": "Water", "typeTextWater": "Public Toilet", "identifier": 1786, "PNAME2014": "CIVIC CENTER", "class": "Water" }, "geometry": { "type": "Point", "coordinates": [ 32.5805, 0.3102 ] } },
{ "type": "Feature", "properties": { "Deliveries": null, "ANC": null, "Type": "Protected Springs", "typeText": null, "ownershipText": "Government", "Name": "Lubuga spring", "layer": "Water", "typeTextWater": "Protected Springs", "identifier": 1878, "PNAME2014": "KIBULI", "class": "Water" }, "geometry": { "type": "Point", "coordinates": [ 32.596, 0.3042 ] } },
{ "type": "Feature", "properties": { "Deliveries": null, "ANC": null, "Type": "Protected Springs", "typeText": null, "ownershipText": "Government", "Name": "Nalwenge spring", "layer": "Water", "typeTextWater": "Protected Springs", "identifier": 1854, "PNAME2014": "GGABA", "class": "Water" }, "geometry": { "type": "Point", "coordinates": [ 32.6287, 0.2687 ] } },
{ "type": "Feature", "properties": { "Deliveries": null, "ANC": null, "Type": "Protected Springs", "typeText": null, "ownershipText": "Government", "Name": "Nalongo Kyeyune", "layer": "Water", "typeTextWater": "Protected Springs", "identifier": 1869, "PNAME2014": "KIBULI", "class": "Water" }, "geometry": { "type": "Point", "coordinates": [ 32.5947, 0.3053 ] } },
{ "type": "Feature", "properties": { "Deliveries": null, "ANC": null, "Type": "Water Reservoirs", "typeText": null, "ownershipText": "Government", "Name": "Gabba I Clear Water", "layer": "Water", "typeTextWater": "Water Reservoirs", "identifier": 1832, "PNAME2014": "GGABA", "class": "Water" }, "geometry": { "type": "Point", "coordinates": [ 32.6393, 0.2437 ] } },
{ "type": "Feature", "properties": { "Deliveries": null, "ANC": null, "Type": "Protected Springs", "typeText": null, "ownershipText": "Government", "Name": "Kakungulu spring", "layer": "Water", "typeTextWater": "Protected Springs", "identifier": 1891, "PNAME2014": "KIBULI", "class": "Water" }, "geometry": { "type": "Point", "coordinates": [ 32.5942, 0.3052 ] } },
{ "type": "Feature", "properties": { "Deliveries": null, "ANC": null, "Type": "Water Reservoirs", "typeText": null, "ownershipText": "Government", "Name": "Gabba II Clear Water", "layer": "Water", "typeTextWater": "Water Reservoirs", "identifier": 1831, "PNAME2014": "GGABA", "class": "Water" }, "geometry": { "type": "Point", "coordinates": [ 32.6362, 0.253 ] } },
{ "type": "Feature", "properties": { "Deliveries": null, "ANC": null, "Type": "Protected Springs", "typeText": null, "ownershipText": "Government", "Name": "Namata", "layer": "Water", "typeTextWater": "Protected Springs", "identifier": 1885, "PNAME2014": "GGABA", "class": "Water" }, "geometry": { "type": "Point", "coordinates": [ 32.6228, 0.2655 ] } },
{ "type": "Feature", "properties": { "Deliveries": null, "ANC": null, "Type": "Protected Springs", "typeText": null, "ownershipText": "Government", "Name": "Yowana Maria3", "layer": "Water", "typeTextWater": "Protected Springs", "identifier": 1714, "PNAME2014": "MENGO", "class": "Water" }, "geometry": { "type": "Point", "coordinates": [ 32.5646, 0.3083 ] } },
{ "type": "Feature", "properties": { "Deliveries": null, "ANC": null, "Type": "Protected Springs", "typeText": null, "ownershipText": "Government", "Name": "Kalega", "layer": "Water", "typeTextWater": "Protected Springs", "identifier": 1874, "PNAME2014": "GGABA", "class": "Water" }, "geometry": { "type": "Point", "coordinates": [ 32.6239, 0.2789 ] } },
{ "type": "Feature", "properties": { "Deliveries": null, "ANC": null, "Type": "Protected Springs", "typeText": null, "ownershipText": "Government", "Name": "Dumba", "layer": "Water", "typeTextWater": "Protected Springs", "identifier": 1873, "PNAME2014": "GGABA", "class": "Water" }, "geometry": { "type": "Point", "coordinates": [ 32.6159, 0.2734 ] } },
{ "type": "Feature", "properties": { "Deliveries": null, "ANC": null, "Type": "Protected Springs", "typeText": null, "ownershipText": "Government", "Name": "Kalungu", "layer": "Water", "typeTextWater": "Protected Springs", "identifier": 1876, "PNAME2014": "GGABA", "class": "Water" }, "geometry": { "type": "Point", "coordinates": [ 32.6264, 0.2774 ] } },
{ "type": "Feature", "properties": { "Deliveries": null, "ANC": null, "Type": "Protected Springs", "typeText": null, "ownershipText": "Government", "Name": "Nabankema", "layer": "Water", "typeTextWater": "Protected Springs", "identifier": 1726, "PNAME2014": "NATETE", "class": "Water" }, "geometry": { "type": "Point", "coordinates": [ 32.5378, 0.2985 ] } },
{ "type": "Feature", "properties": { "Deliveries": null, "ANC": null, "Type": "Protected Springs", "typeText": null, "ownershipText": "Government", "Name": "Nantale spring", "layer": "Water", "typeTextWater": "Protected Springs", "identifier": 1727, "PNAME2014": "NATETE", "class": "Water" }, "geometry": { "type": "Point", "coordinates": [ 32.5313, 0.3018 ] } },
{ "type": "Feature", "properties": { "Deliveries": null, "ANC": null, "Type": "Protected Springs", "typeText": null, "ownershipText": "Government", "Name": "Ssalongo John Lwanga", "layer": "Water", "typeTextWater": "Protected Springs", "identifier": 1718, "PNAME2014": "NATETE", "class": "Water" }, "geometry": { "type": "Point", "coordinates": [ 32.5313, 0.3022 ] } },
{ "type": "Feature", "properties": { "Deliveries": null, "ANC": null, "Type": "Protected Springs", "typeText": null, "ownershipText": "Government", "Name": "Mzee Ali1", "layer": "Water", "typeTextWater": "Protected Springs", "identifier": 1850, "PNAME2014": "BUKOTO II", "class": "Water" }, "geometry": { "type": "Point", "coordinates": [ 32.6045, 0.356 ] } },
{ "type": "Feature", "properties": { "Deliveries": null, "ANC": null, "Type": "Protected Springs", "typeText": null, "ownershipText": "Government", "Name": "Mzee Ali2", "layer": "Water", "typeTextWater": "Protected Springs", "identifier": 1851, "PNAME2014": "BUKOTO II", "class": "Water" }, "geometry": { "type": "Point", "coordinates": [ 32.6044, 0.3558 ] } },
{ "type": "Feature", "properties": { "Deliveries": null, "ANC": null, "Type": "Protected Springs", "typeText": null, "ownershipText": "Government", "Name": "Zigiti spring", "layer": "Water", "typeTextWater": "Protected Springs", "identifier": 1721, "PNAME2014": "MUTUNDWE", "class": "Water" }, "geometry": { "type": "Point", "coordinates": [ 32.5444, 0.2893 ] } },
{ "type": "Feature", "properties": { "Deliveries": null, "ANC": null, "Type": "Protected Springs", "typeText": null, "ownershipText": "Government", "Name": "Kakajjo I", "layer": "Water", "typeTextWater": "Protected Springs", "identifier": 1722, "PNAME2014": "BUKESA", "class": "Water" }, "geometry": { "type": "Point", "coordinates": [ 32.5672, 0.3224 ] } },
{ "type": "Feature", "properties": { "Deliveries": null, "ANC": null, "Type": "Protected Springs", "typeText": null, "ownershipText": "Government", "Name": "Near Mr. Mugerwa", "layer": "Water", "typeTextWater": "Protected Springs", "identifier": 1728, "PNAME2014": "MUTUNDWE", "class": "Water" }, "geometry": { "type": "Point", "coordinates": [ 32.5429, 0.2827 ] } },
{ "type": "Feature", "properties": { "Deliveries": null, "ANC": null, "Type": "Protected Springs", "typeText": null, "ownershipText": "Government", "Name": "Kakajjo II", "layer": "Water", "typeTextWater": "Protected Springs", "identifier": 1712, "PNAME2014": "BUKESA", "class": "Water" }, "geometry": { "type": "Point", "coordinates": [ 32.5677, 0.3207 ] } },
{ "type": "Feature", "properties": { "Deliveries": null, "ANC": null, "Type": "Protected Springs", "typeText": null, "ownershipText": "Government", "Name": "Kaddu Kasanya", "layer": "Water", "typeTextWater": "Protected Springs", "identifier": 1743, "PNAME2014": "MUTUNDWE", "class": "Water" }, "geometry": { "type": "Point", "coordinates": [ 32.5441, 0.2854 ] } },
{ "type": "Feature", "properties": { "Deliveries": null, "ANC": null, "Type": "Protected Springs", "typeText": null, "ownershipText": "Government", "Name": "Rita's spring", "layer": "Water", "typeTextWater": "Protected Springs", "identifier": 1731, "PNAME2014": "MUTUNDWE", "class": "Water" }, "geometry": { "type": "Point", "coordinates": [ 32.5393, 0.2917 ] } },
{ "type": "Feature", "properties": { "Deliveries": null, "ANC": null, "Type": "Protected Springs", "typeText": null, "ownershipText": "Government", "Name": "Kiwa, Mzee Kabogoza", "layer": "Water", "typeTextWater": "Protected Springs", "identifier": 1734, "PNAME2014": "MUTUNDWE", "class": "Water" }, "geometry": { "type": "Point", "coordinates": [ 32.5395, 0.2913 ] } },
{ "type": "Feature", "properties": { "Deliveries": null, "ANC": null, "Type": "Protected Springs", "typeText": null, "ownershipText": "Government", "Name": "Mbirontono, Hajji Sula", "layer": "Water", "typeTextWater": "Protected Springs", "identifier": 1770, "PNAME2014": "MUTUNDWE", "class": "Water" }, "geometry": { "type": "Point", "coordinates": [ 32.5383, 0.2924 ] } },
{ "type": "Feature", "properties": { "Deliveries": null, "ANC": null, "Type": "Protected Springs", "typeText": null, "ownershipText": "Government", "Name": "Miriam Kizza", "layer": "Water", "typeTextWater": "Protected Springs", "identifier": 1771, "PNAME2014": "MUTUNDWE", "class": "Water" }, "geometry": { "type": "Point", "coordinates": [ 32.5397, 0.2901 ] } },
{ "type": "Feature", "properties": { "Deliveries": null, "ANC": null, "Type": "Protected Springs", "typeText": null, "ownershipText": "Government", "Name": "Near Basangira", "layer": "Water", "typeTextWater": "Protected Springs", "identifier": 1762, "PNAME2014": "MUTUNDWE", "class": "Water" }, "geometry": { "type": "Point", "coordinates": [ 32.5453, 0.2867 ] } },
{ "type": "Feature", "properties": { "Deliveries": null, "ANC": null, "Type": "Protected Springs", "typeText": null, "ownershipText": "Government", "Name": "Nsooba spring II", "layer": "Water", "typeTextWater": "Protected Springs", "identifier": 1886, "PNAME2014": "MULAGO III", "class": "Water" }, "geometry": { "type": "Point", "coordinates": [ 32.576, 0.3505 ] } },
{ "type": "Feature", "properties": { "Deliveries": null, "ANC": null, "Type": "Public Toilet", "typeText": null, "ownershipText": "Government", "Name": "Centenary Park Toilet", "layer": "Water", "typeTextWater": "Public Toilet", "identifier": 1802, "PNAME2014": "KOLOLO IV", "class": "Water" }, "geometry": { "type": "Point", "coordinates": [ 32.594, 0.3174 ] } },
{ "type": "Feature", "properties": { "Deliveries": null, "ANC": null, "Type": "Protected Springs", "typeText": null, "ownershipText": "Government", "Name": "Near Mr. Kabaale", "layer": "Water", "typeTextWater": "Protected Springs", "identifier": 1763, "PNAME2014": "MUTUNDWE", "class": "Water" }, "geometry": { "type": "Point", "coordinates": [ 32.5404, 0.2887 ] } },
{ "type": "Feature", "properties": { "Deliveries": null, "ANC": null, "Type": "Protected Springs", "typeText": null, "ownershipText": "Government", "Name": "Swaleh", "layer": "Water", "typeTextWater": "Protected Springs", "identifier": 1887, "PNAME2014": "KYEBANDO", "class": "Water" }, "geometry": { "type": "Point", "coordinates": [ 32.5803, 0.351 ] } },
{ "type": "Feature", "properties": { "Deliveries": null, "ANC": null, "Type": "Protected Springs", "typeText": null, "ownershipText": "Government", "Name": "Daudi's spring", "layer": "Water", "typeTextWater": "Protected Springs", "identifier": 1697, "PNAME2014": "KYEBANDO", "class": "Water" }, "geometry": { "type": "Point", "coordinates": [ 32.5866, 0.3492 ] } },
{ "type": "Feature", "properties": { "Deliveries": null, "ANC": null, "Type": "Protected Springs", "typeText": null, "ownershipText": "Government", "Name": "Kiwoonvu spring", "layer": "Water", "typeTextWater": "Protected Springs", "identifier": 1900, "PNAME2014": "MULAGO II", "class": "Water" }, "geometry": { "type": "Point", "coordinates": [ 32.5725, 0.3411 ] } },
{ "type": "Feature", "properties": { "Deliveries": null, "ANC": null, "Type": "Protected Springs", "typeText": null, "ownershipText": "Government", "Name": "Kiteeso", "layer": "Water", "typeTextWater": "Protected Springs", "identifier": 1724, "PNAME2014": "KISENYI II", "class": "Water" }, "geometry": { "type": "Point", "coordinates": [ 32.5719, 0.3071 ] } },
{ "type": "Feature", "properties": { "Deliveries": null, "ANC": null, "Type": "Protected Springs", "typeText": null, "ownershipText": "Government", "Name": "Mutebi", "layer": "Water", "typeTextWater": "Protected Springs", "identifier": 1706, "PNAME2014": "KISENYI II", "class": "Water" }, "geometry": { "type": "Point", "coordinates": [ 32.5726, 0.3076 ] } },
{ "type": "Feature", "properties": { "Deliveries": null, "ANC": null, "Type": "Protected Springs", "typeText": null, "ownershipText": "Government", "Name": "Nalubega", "layer": "Water", "typeTextWater": "Protected Springs", "identifier": 1707, "PNAME2014": "KISENYI II", "class": "Water" }, "geometry": { "type": "Point", "coordinates": [ 32.572, 0.3076 ] } },
{ "type": "Feature", "properties": { "Deliveries": null, "ANC": null, "Type": "Protected Springs", "typeText": null, "ownershipText": "Government", "Name": "Kiti spring", "layer": "Water", "typeTextWater": "Protected Springs", "identifier": 1725, "PNAME2014": "KISENYI  III", "class": "Water" }, "geometry": { "type": "Point", "coordinates": [ 32.5752, 0.3018 ] } },
{ "type": "Feature", "properties": { "Deliveries": null, "ANC": null, "Type": "Protected Springs", "typeText": null, "ownershipText": "Government", "Name": "Kyeyitabwa", "layer": "Water", "typeTextWater": "Protected Springs", "identifier": 1865, "PNAME2014": "BUKASA", "class": "Water" }, "geometry": { "type": "Point", "coordinates": [ 32.6243, 0.2836 ] } },
{ "type": "Feature", "properties": { "Deliveries": null, "ANC": null, "Type": "Protected Springs", "typeText": null, "ownershipText": "Government", "Name": "Sentamu spring", "layer": "Water", "typeTextWater": "Protected Springs", "identifier": 1708, "PNAME2014": "KISENYI  III", "class": "Water" }, "geometry": { "type": "Point", "coordinates": [ 32.5758, 0.3033 ] } },
{ "type": "Feature", "properties": { "Deliveries": null, "ANC": null, "Type": "Public Toilet", "typeText": null, "ownershipText": "Government", "Name": "Arua Park Toilet", "layer": "Water", "typeTextWater": "Public Toilet", "identifier": 1790, "PNAME2014": "NAKIVUBO-SHAURIYAKO", "class": "Water" }, "geometry": { "type": "Point", "coordinates": [ 32.5757, 0.316 ] } },
{ "type": "Feature", "properties": { "Deliveries": null, "ANC": null, "Type": "Protected Springs", "typeText": null, "ownershipText": "Government", "Name": "Muzibe, John Kayondo", "layer": "Water", "typeTextWater": "Protected Springs", "identifier": 1867, "PNAME2014": "BUKASA", "class": "Water" }, "geometry": { "type": "Point", "coordinates": [ 32.625, 0.2973 ] } },
{ "type": "Feature", "properties": { "Deliveries": null, "ANC": null, "Type": "Protected Springs", "typeText": null, "ownershipText": "Government", "Name": "Luzige A", "layer": "Water", "typeTextWater": "Protected Springs", "identifier": 1710, "PNAME2014": "KISENYI  III", "class": "Water" }, "geometry": { "type": "Point", "coordinates": [ 32.5758, 0.3048 ] } },
{ "type": "Feature", "properties": { "Deliveries": null, "ANC": null, "Type": "Protected Springs", "typeText": null, "ownershipText": "Government", "Name": "Sozi\/Cmans", "layer": "Water", "typeTextWater": "Protected Springs", "identifier": 1872, "PNAME2014": "BUKASA", "class": "Water" }, "geometry": { "type": "Point", "coordinates": [ 32.6274, 0.2948 ] } },
{ "type": "Feature", "properties": { "Deliveries": null, "ANC": null, "Type": "Protected Springs", "typeText": null, "ownershipText": "Government", "Name": "Kanyogoga spring 2", "layer": "Water", "typeTextWater": "Protected Springs", "identifier": 1862, "PNAME2014": "BUKASA", "class": "Water" }, "geometry": { "type": "Point", "coordinates": [ 32.6195, 0.3023 ] } },
{ "type": "Feature", "properties": { "Deliveries": null, "ANC": null, "Type": "Protected Springs", "typeText": null, "ownershipText": "Government", "Name": "Bukasa I", "layer": "Water", "typeTextWater": "Protected Springs", "identifier": 1889, "PNAME2014": "BUKASA", "class": "Water" }, "geometry": { "type": "Point", "coordinates": [ 32.6295, 0.2934 ] } },
{ "type": "Feature", "properties": { "Deliveries": null, "ANC": null, "Type": "Protected Springs", "typeText": null, "ownershipText": "Government", "Name": "Kanyogoga spring 3", "layer": "Water", "typeTextWater": "Protected Springs", "identifier": 1892, "PNAME2014": "BUKASA", "class": "Water" }, "geometry": { "type": "Point", "coordinates": [ 32.6224, 0.3002 ] } },
{ "type": "Feature", "properties": { "Deliveries": null, "ANC": null, "Type": "Public Toilet", "typeText": null, "ownershipText": "Government", "Name": "Namuwongo Market", "layer": "Water", "typeTextWater": "Public Toilet", "identifier": 1785, "PNAME2014": "BUKASA", "class": "Water" }, "geometry": { "type": "Point", "coordinates": [ 32.6144, 0.3045 ] } },
{ "type": "Feature", "properties": { "Deliveries": null, "ANC": null, "Type": "Protected Springs", "typeText": null, "ownershipText": "Government", "Name": "Mulimira", "layer": "Water", "typeTextWater": "Protected Springs", "identifier": 1842, "PNAME2014": "BUKOTO I", "class": "Water" }, "geometry": { "type": "Point", "coordinates": [ 32.5931, 0.3476 ] } },
{ "type": "Feature", "properties": { "Deliveries": null, "ANC": null, "Type": "Protected Springs", "typeText": null, "ownershipText": "Government", "Name": "Kisenyi I", "layer": "Water", "typeTextWater": "Protected Springs", "identifier": 1723, "PNAME2014": "KAMWOKYA II", "class": "Water" }, "geometry": { "type": "Point", "coordinates": [ 32.5927, 0.3447 ] } },
{ "type": "Feature", "properties": { "Deliveries": null, "ANC": null, "Type": "Protected Springs", "typeText": null, "ownershipText": "Government", "Name": "Katende spring", "layer": "Water", "typeTextWater": "Protected Springs", "identifier": 1847, "PNAME2014": "BUKOTO I", "class": "Water" }, "geometry": { "type": "Point", "coordinates": [ 32.6015, 0.3565 ] } },
{ "type": "Feature", "properties": { "Deliveries": null, "ANC": null, "Type": "Protected Springs", "typeText": null, "ownershipText": "Government", "Name": "Ali's spring", "layer": "Water", "typeTextWater": "Protected Springs", "identifier": 1717, "PNAME2014": "KAMWOKYA II", "class": "Water" }, "geometry": { "type": "Point", "coordinates": [ 32.587, 0.3445 ] } },
{ "type": "Feature", "properties": { "Deliveries": null, "ANC": null, "Type": "Protected Springs", "typeText": null, "ownershipText": "Government", "Name": "Kiyingi", "layer": "Water", "typeTextWater": "Protected Springs", "identifier": 1705, "PNAME2014": "KAMWOKYA II", "class": "Water" }, "geometry": { "type": "Point", "coordinates": [ 32.5893, 0.3457 ] } },
{ "type": "Feature", "properties": { "Deliveries": null, "ANC": null, "Type": "Protected Springs", "typeText": null, "ownershipText": "Government", "Name": "Kabayaye", "layer": "Water", "typeTextWater": "Protected Springs", "identifier": 1702, "PNAME2014": "KAMWOKYA II", "class": "Water" }, "geometry": { "type": "Point", "coordinates": [ 32.5864, 0.3432 ] } },
{ "type": "Feature", "properties": { "Deliveries": null, "ANC": null, "Type": "Protected Springs", "typeText": null, "ownershipText": "Government", "Name": "Kabuye\/Kiwuuwa", "layer": "Water", "typeTextWater": "Protected Springs", "identifier": 1742, "PNAME2014": "KABOWA", "class": "Water" }, "geometry": { "type": "Point", "coordinates": [ 32.551, 0.2832 ] } },
{ "type": "Feature", "properties": { "Deliveries": null, "ANC": null, "Type": "Protected Springs", "typeText": null, "ownershipText": "Government", "Name": "Kisenyi II", "layer": "Water", "typeTextWater": "Protected Springs", "identifier": 1704, "PNAME2014": "KAMWOKYA II", "class": "Water" }, "geometry": { "type": "Point", "coordinates": [ 32.5925, 0.3447 ] } },
{ "type": "Feature", "properties": { "Deliveries": null, "ANC": null, "Type": "Protected Springs", "typeText": null, "ownershipText": "Government", "Name": "Kafuko", "layer": "Water", "typeTextWater": "Protected Springs", "identifier": 1744, "PNAME2014": "KABOWA", "class": "Water" }, "geometry": { "type": "Point", "coordinates": [ 32.5522, 0.2834 ] } },
{ "type": "Feature", "properties": { "Deliveries": null, "ANC": null, "Type": "Protected Springs", "typeText": null, "ownershipText": "Government", "Name": "Kalanzi", "layer": "Water", "typeTextWater": "Protected Springs", "identifier": 1703, "PNAME2014": "KAMWOKYA II", "class": "Water" }, "geometry": { "type": "Point", "coordinates": [ 32.5868, 0.344 ] } },
{ "type": "Feature", "properties": { "Deliveries": null, "ANC": null, "Type": "Protected Springs", "typeText": null, "ownershipText": "Government", "Name": "Nalongo spring", "layer": "Water", "typeTextWater": "Protected Springs", "identifier": 1884, "PNAME2014": "BUKASA", "class": "Water" }, "geometry": { "type": "Point", "coordinates": [ 32.6256, 0.2965 ] } },
{ "type": "Feature", "properties": { "Deliveries": null, "ANC": null, "Type": "Protected Springs", "typeText": null, "ownershipText": "Government", "Name": "Near Playground", "layer": "Water", "typeTextWater": "Protected Springs", "identifier": 1729, "PNAME2014": "KABOWA", "class": "Water" }, "geometry": { "type": "Point", "coordinates": [ 32.556, 0.2899 ] } },
{ "type": "Feature", "properties": { "Deliveries": null, "ANC": null, "Type": "Protected Springs", "typeText": null, "ownershipText": "Government", "Name": "Kanyogoga spring 1", "layer": "Water", "typeTextWater": "Protected Springs", "identifier": 1877, "PNAME2014": "BUKASA", "class": "Water" }, "geometry": { "type": "Point", "coordinates": [ 32.6195, 0.3023 ] } },
{ "type": "Feature", "properties": { "Deliveries": null, "ANC": null, "Type": "Protected Springs", "typeText": null, "ownershipText": "Government", "Name": "Kaweesa\/Sebuliba Hussein", "layer": "Water", "typeTextWater": "Protected Springs", "identifier": 1779, "PNAME2014": "KABOWA", "class": "Water" }, "geometry": { "type": "Point", "coordinates": [ 32.5535, 0.282 ] } },
{ "type": "Feature", "properties": { "Deliveries": null, "ANC": null, "Type": "Protected Springs", "typeText": null, "ownershipText": "Government", "Name": "Lule spring", "layer": "Water", "typeTextWater": "Protected Springs", "identifier": 1879, "PNAME2014": "BUKASA", "class": "Water" }, "geometry": { "type": "Point", "coordinates": [ 32.6197, 0.2871 ] } },
{ "type": "Feature", "properties": { "Deliveries": null, "ANC": null, "Type": "Protected Springs", "typeText": null, "ownershipText": "Government", "Name": "Pope Paul", "layer": "Water", "typeTextWater": "Protected Springs", "identifier": 1730, "PNAME2014": "RUBAGA", "class": "Water" }, "geometry": { "type": "Point", "coordinates": [ 32.5583, 0.2947 ] } },
{ "type": "Feature", "properties": { "Deliveries": null, "ANC": null, "Type": "Protected Springs", "typeText": null, "ownershipText": "Government", "Name": "Namwongo spring", "layer": "Water", "typeTextWater": "Protected Springs", "identifier": 1870, "PNAME2014": "KISUGU", "class": "Water" }, "geometry": { "type": "Point", "coordinates": [ 32.6128, 0.307 ] } },
{ "type": "Feature", "properties": { "Deliveries": null, "ANC": null, "Type": "Protected Springs", "typeText": null, "ownershipText": "Government", "Name": "George", "layer": "Water", "typeTextWater": "Protected Springs", "identifier": 1775, "PNAME2014": "KABOWA", "class": "Water" }, "geometry": { "type": "Point", "coordinates": [ 32.5537, 0.289 ] } },
{ "type": "Feature", "properties": { "Deliveries": null, "ANC": null, "Type": "Protected Springs", "typeText": null, "ownershipText": "Government", "Name": "Nabagereka", "layer": "Water", "typeTextWater": "Protected Springs", "identifier": 1716, "PNAME2014": "KISENYI I", "class": "Water" }, "geometry": { "type": "Point", "coordinates": [ 32.5694, 0.3109 ] } },
{ "type": "Feature", "properties": { "Deliveries": null, "ANC": null, "Type": "Protected Springs", "typeText": null, "ownershipText": "Government", "Name": "Ruth Kitaka", "layer": "Water", "typeTextWater": "Protected Springs", "identifier": 1732, "PNAME2014": "RUBAGA", "class": "Water" }, "geometry": { "type": "Point", "coordinates": [ 32.5412, 0.299 ] } },
{ "type": "Feature", "properties": { "Deliveries": null, "ANC": null, "Type": "Protected Springs", "typeText": null, "ownershipText": "Government", "Name": "Kasanvu spring", "layer": "Water", "typeTextWater": "Protected Springs", "identifier": 1893, "PNAME2014": "KISUGU", "class": "Water" }, "geometry": { "type": "Point", "coordinates": [ 32.6128, 0.3083 ] } },
{ "type": "Feature", "properties": { "Deliveries": null, "ANC": null, "Type": "Protected Springs", "typeText": null, "ownershipText": "Government", "Name": "Lugemwa", "layer": "Water", "typeTextWater": "Protected Springs", "identifier": 1767, "PNAME2014": "KABOWA", "class": "Water" }, "geometry": { "type": "Point", "coordinates": [ 32.5553, 0.2798 ] } },
{ "type": "Feature", "properties": { "Deliveries": null, "ANC": null, "Type": "Protected Springs", "typeText": null, "ownershipText": "Government", "Name": "Kazungu", "layer": "Water", "typeTextWater": "Protected Springs", "identifier": 1863, "PNAME2014": "KATWE I", "class": "Water" }, "geometry": { "type": "Point", "coordinates": [ 32.5746, 0.3004 ] } },
{ "type": "Feature", "properties": { "Deliveries": null, "ANC": null, "Type": "Protected Springs", "typeText": null, "ownershipText": "Government", "Name": "Mugalasi", "layer": "Water", "typeTextWater": "Protected Springs", "identifier": 1773, "PNAME2014": "RUBAGA", "class": "Water" }, "geometry": { "type": "Point", "coordinates": [ 32.544, 0.3034 ] } },
{ "type": "Feature", "properties": { "Deliveries": null, "ANC": null, "Type": "Protected Springs", "typeText": null, "ownershipText": "Government", "Name": "Namukwaya spring", "layer": "Water", "typeTextWater": "Protected Springs", "identifier": 1761, "PNAME2014": "RUBAGA", "class": "Water" }, "geometry": { "type": "Point", "coordinates": [ 32.5607, 0.2989 ] } },
{ "type": "Feature", "properties": { "Deliveries": null, "ANC": null, "Type": "Protected Springs", "typeText": null, "ownershipText": "Government", "Name": "Nalongo", "layer": "Water", "typeTextWater": "Protected Springs", "identifier": 1853, "PNAME2014": "NAGURU II", "class": "Water" }, "geometry": { "type": "Point", "coordinates": [ 32.6135, 0.3456 ] } },
{ "type": "Feature", "properties": { "Deliveries": null, "ANC": null, "Type": "Protected Springs", "typeText": null, "ownershipText": "Government", "Name": "Kasasiro B", "layer": "Water", "typeTextWater": "Protected Springs", "identifier": 1846, "PNAME2014": "NAGURU II", "class": "Water" }, "geometry": { "type": "Point", "coordinates": [ 32.6027, 0.3355 ] } },
{ "type": "Feature", "properties": { "Deliveries": null, "ANC": null, "Type": "Protected Springs", "typeText": null, "ownershipText": "Government", "Name": "Kiwarimu spring", "layer": "Water", "typeTextWater": "Protected Springs", "identifier": 1848, "PNAME2014": "NAGURU II", "class": "Water" }, "geometry": { "type": "Point", "coordinates": [ 32.5998, 0.3413 ] } },
{ "type": "Feature", "properties": { "Deliveries": null, "ANC": null, "Type": "Water Reservoirs", "typeText": null, "ownershipText": "Government", "Name": "Naguru", "layer": "Water", "typeTextWater": "Water Reservoirs", "identifier": 1837, "PNAME2014": "NAGURU II", "class": "Water" }, "geometry": { "type": "Point", "coordinates": [ 32.6037, 0.3481 ] } },
{ "type": "Feature", "properties": { "Deliveries": null, "ANC": null, "Type": "Protected Springs", "typeText": null, "ownershipText": "Government", "Name": "Kazingo Angello", "layer": "Water", "typeTextWater": "Protected Springs", "identifier": 1748, "PNAME2014": "KABOWA", "class": "Water" }, "geometry": { "type": "Point", "coordinates": [ 32.5571, 0.2902 ] } },
{ "type": "Feature", "properties": { "Deliveries": null, "ANC": null, "Type": "Protected Springs", "typeText": null, "ownershipText": "Government", "Name": "Binyonyi  spring", "layer": "Water", "typeTextWater": "Protected Springs", "identifier": 1839, "PNAME2014": "NAGURU II", "class": "Water" }, "geometry": { "type": "Point", "coordinates": [ 32.6032, 0.3337 ] } },
{ "type": "Feature", "properties": { "Deliveries": null, "ANC": null, "Type": "Protected Springs", "typeText": null, "ownershipText": "Government", "Name": "Kiberu spring", "layer": "Water", "typeTextWater": "Protected Springs", "identifier": 1749, "PNAME2014": "KABOWA", "class": "Water" }, "geometry": { "type": "Point", "coordinates": [ 32.5514, 0.2861 ] } },
{ "type": "Feature", "properties": { "Deliveries": null, "ANC": null, "Type": "Water Reservoirs", "typeText": null, "ownershipText": "Government", "Name": "Rubaga", "layer": "Water", "typeTextWater": "Water Reservoirs", "identifier": 1834, "PNAME2014": "RUBAGA", "class": "Water" }, "geometry": { "type": "Point", "coordinates": [ 32.5496, 0.3031 ] } },
{ "type": "Feature", "properties": { "Deliveries": null, "ANC": null, "Type": "Protected Springs", "typeText": null, "ownershipText": "Government", "Name": "Kabanyanya", "layer": "Water", "typeTextWater": "Protected Springs", "identifier": 1861, "PNAME2014": "NAGURU II", "class": "Water" }, "geometry": { "type": "Point", "coordinates": [ 32.6047, 0.3306 ] } },
{ "type": "Feature", "properties": { "Deliveries": null, "ANC": null, "Type": "Protected Springs", "typeText": null, "ownershipText": "Government", "Name": "Lule Spring 1", "layer": "Water", "typeTextWater": "Protected Springs", "identifier": 1738, "PNAME2014": "KABOWA", "class": "Water" }, "geometry": { "type": "Point", "coordinates": [ 32.56, 0.2896 ] } },
{ "type": "Feature", "properties": { "Deliveries": null, "ANC": null, "Type": "Protected Springs", "typeText": null, "ownershipText": "Government", "Name": "Wambizi spring", "layer": "Water", "typeTextWater": "Protected Springs", "identifier": 1720, "PNAME2014": "RUBAGA", "class": "Water" }, "geometry": { "type": "Point", "coordinates": [ 32.5451, 0.2956 ] } },
{ "type": "Feature", "properties": { "Deliveries": null, "ANC": null, "Type": "Protected Springs", "typeText": null, "ownershipText": "Government", "Name": "Lule Spimg 2", "layer": "Water", "typeTextWater": "Protected Springs", "identifier": 1737, "PNAME2014": "KABOWA", "class": "Water" }, "geometry": { "type": "Point", "coordinates": [ 32.5602, 0.2896 ] } },
{ "type": "Feature", "properties": { "Deliveries": null, "ANC": null, "Type": "Protected Springs", "typeText": null, "ownershipText": "Government", "Name": "Nawanko", "layer": "Water", "typeTextWater": "Protected Springs", "identifier": 1856, "PNAME2014": "KATWE I", "class": "Water" }, "geometry": { "type": "Point", "coordinates": [ 32.576, 0.2961 ] } },
{ "type": "Feature", "properties": { "Deliveries": null, "ANC": null, "Type": "Protected Springs", "typeText": null, "ownershipText": "Government", "Name": "Mukyala Kasule", "layer": "Water", "typeTextWater": "Protected Springs", "identifier": 1758, "PNAME2014": "RUBAGA", "class": "Water" }, "geometry": { "type": "Point", "coordinates": [ 32.542, 0.3021 ] } },
{ "type": "Feature", "properties": { "Deliveries": null, "ANC": null, "Type": "Protected Springs", "typeText": null, "ownershipText": "Government", "Name": "Mpagi (orthodox)", "layer": "Water", "typeTextWater": "Protected Springs", "identifier": 1772, "PNAME2014": "LUNGUJJA", "class": "Water" }, "geometry": { "type": "Point", "coordinates": [ 32.5431, 0.3055 ] } },
{ "type": "Feature", "properties": { "Deliveries": null, "ANC": null, "Type": "Protected Springs", "typeText": null, "ownershipText": "Government", "Name": "Mpoomba", "layer": "Water", "typeTextWater": "Protected Springs", "identifier": 1739, "PNAME2014": "KABOWA", "class": "Water" }, "geometry": { "type": "Point", "coordinates": [ 32.5606, 0.2893 ] } },
{ "type": "Feature", "properties": { "Deliveries": null, "ANC": null, "Type": "Protected Springs", "typeText": null, "ownershipText": "Government", "Name": "Namwandu Musoke", "layer": "Water", "typeTextWater": "Protected Springs", "identifier": 1855, "PNAME2014": "KATWE I", "class": "Water" }, "geometry": { "type": "Point", "coordinates": [ 32.5746, 0.295 ] } },
{ "type": "Feature", "properties": { "Deliveries": null, "ANC": null, "Type": "Protected Springs", "typeText": null, "ownershipText": "Government", "Name": "Iga's spring", "layer": "Water", "typeTextWater": "Protected Springs", "identifier": 1757, "PNAME2014": "RUBAGA", "class": "Water" }, "geometry": { "type": "Point", "coordinates": [ 32.5419, 0.3006 ] } },
{ "type": "Feature", "properties": { "Deliveries": null, "ANC": null, "Type": "Protected Springs", "typeText": null, "ownershipText": "Government", "Name": "Musoke", "layer": "Water", "typeTextWater": "Protected Springs", "identifier": 1882, "PNAME2014": "KATWE I", "class": "Water" }, "geometry": { "type": "Point", "coordinates": [ 32.5751, 0.3007 ] } },
{ "type": "Feature", "properties": { "Deliveries": null, "ANC": null, "Type": "Protected Springs", "typeText": null, "ownershipText": "Government", "Name": "Kayanja spring", "layer": "Water", "typeTextWater": "Protected Springs", "identifier": 1747, "PNAME2014": "RUBAGA", "class": "Water" }, "geometry": { "type": "Point", "coordinates": [ 32.56, 0.3018 ] } },
{ "type": "Feature", "properties": { "Deliveries": null, "ANC": null, "Type": "Protected Springs", "typeText": null, "ownershipText": "Government", "Name": "Mitimpa", "layer": "Water", "typeTextWater": "Protected Springs", "identifier": 1880, "PNAME2014": "KATWE I", "class": "Water" }, "geometry": { "type": "Point", "coordinates": [ 32.5751, 0.3007 ] } },
{ "type": "Feature", "properties": { "Deliveries": null, "ANC": null, "Type": "Protected Springs", "typeText": null, "ownershipText": "Government", "Name": "Yosiya spring", "layer": "Water", "typeTextWater": "Protected Springs", "identifier": 1751, "PNAME2014": "RUBAGA", "class": "Water" }, "geometry": { "type": "Point", "coordinates": [ 32.542, 0.3003 ] } },
{ "type": "Feature", "properties": { "Deliveries": null, "ANC": null, "Type": "Protected Springs", "typeText": null, "ownershipText": "Government", "Name": "Nabowa", "layer": "Water", "typeTextWater": "Protected Springs", "identifier": 1868, "PNAME2014": "KATWE I", "class": "Water" }, "geometry": { "type": "Point", "coordinates": [ 32.5743, 0.2947 ] } },
{ "type": "Feature", "properties": { "Deliveries": null, "ANC": null, "Type": "Protected Springs", "typeText": null, "ownershipText": "Government", "Name": "Mulingi spring", "layer": "Water", "typeTextWater": "Protected Springs", "identifier": 1741, "PNAME2014": "RUBAGA", "class": "Water" }, "geometry": { "type": "Point", "coordinates": [ 32.5427, 0.2969 ] } },
{ "type": "Feature", "properties": { "Deliveries": null, "ANC": null, "Type": "Protected Springs", "typeText": null, "ownershipText": "Government", "Name": "Ssali spring", "layer": "Water", "typeTextWater": "Protected Springs", "identifier": 1858, "PNAME2014": "KATWE I", "class": "Water" }, "geometry": { "type": "Point", "coordinates": [ 32.5746, 0.3001 ] } },
{ "type": "Feature", "properties": { "Deliveries": null, "ANC": null, "Type": "Protected Springs", "typeText": null, "ownershipText": "Government", "Name": "Kibalama", "layer": "Water", "typeTextWater": "Protected Springs", "identifier": 1864, "PNAME2014": "KATWE I", "class": "Water" }, "geometry": { "type": "Point", "coordinates": [ 32.5745, 0.297 ] } },
{ "type": "Feature", "properties": { "Deliveries": null, "ANC": null, "Type": "Public Toilet", "typeText": null, "ownershipText": "Government", "Name": "Nakawa II", "layer": "Water", "typeTextWater": "Public Toilet", "identifier": 1797, "PNAME2014": "NAGURU I", "class": "Water" }, "geometry": { "type": "Point", "coordinates": [ 32.6133, 0.3299 ] } },
{ "type": "Feature", "properties": { "Deliveries": null, "ANC": null, "Type": "Protected Springs", "typeText": null, "ownershipText": "Government", "Name": "Show ground spring", "layer": "Water", "typeTextWater": "Protected Springs", "identifier": 1830, "PNAME2014": "NAGURU I", "class": "Water" }, "geometry": { "type": "Point", "coordinates": [ 32.6099, 0.3293 ] } }
]
}
